[{"avg_outflow": 13.295454545454545, "dockcount": "27", "installation_date": "8/6/2013", "lat": "37.329732", "long": "-121.901782", "rank": 1, "region": "San Jose", "score": 7.301583333333333e-05, "station_id": "2", "station_name": "San Jose Diridon Caltrain Station", "tot_outflow": 1755}, {"avg_outflow": 1.7803030303030303, "dockcount": "15", "installation_date": "8/5/2013", "lat": "37.330698", "long": "-121.888979", "rank": 1, "region": "San Jose", "score": 7.544062500000002e-06, "station_id": "3", "station_name": "San Jose Civic Center", "tot_outflow": 235}, {"avg_outflow": 5.598484848484849, "dockcount": "11", "installation_date": "8/6/2013", "lat": "37.333988", "long": "-121.894902", "rank": 1, "region": "San Jose", "score": 9.785302083333332e-05, "station_id": "4", "station_name": "Santa Clara at Almaden", "tot_outflow": 739}, {"avg_outflow": 2.3257575757575757, "dockcount": "19", "installation_date": "8/5/2013", "lat": "37.331415", "long": "-121.8932", "rank": 1, "region": "San Jose", "score": 2.2785625e-05, "station_id": "5", "station_name": "Adobe on Almaden", "tot_outflow": 307}, {"avg_outflow": 4.0606060606060606, "dockcount": "15", "installation_date": "8/7/2013", "lat": "37.336721", "long": "-121.894074", "rank": 1, "region": "San Jose", "score": 1.6115104166666667e-05, "station_id": "6", "station_name": "San Pedro Square", "tot_outflow": 536}, {"avg_outflow": 4.333333333333333, "dockcount": "15", "installation_date": "8/7/2013", "lat": "37.333798", "long": "-121.886943", "rank": 1, "region": "San Jose", "score": 8.6515625e-06, "station_id": "7", "station_name": "Paseo de San Antonio", "tot_outflow": 572}, {"avg_outflow": 3.765151515151515, "dockcount": "15", "installation_date": "8/5/2013", "lat": "37.330165", "long": "-121.885831", "rank": 1, "region": "San Jose", "score": 2.446875e-06, "station_id": "8", "station_name": "San Salvador at 1st", "tot_outflow": 497}, {"avg_outflow": 2.7196969696969697, "dockcount": "15", "installation_date": "8/5/2013", "lat": "37.348742", "long": "-121.894715", "rank": 1, "region": "San Jose", "score": 0.0, "station_id": "9", "station_name": "Japantown", "tot_outflow": 359}, {"avg_outflow": 5.174242424242424, "dockcount": "15", "installation_date": "8/6/2013", "lat": "37.337391", "long": "-121.886995", "rank": 1, "region": "San Jose", "score": 0.0001097178125, "station_id": "10", "station_name": "San Jose City Hall", "tot_outflow": 683}, {"avg_outflow": 3.196969696969697, "dockcount": "19", "installation_date": "8/6/2013", "lat": "37.335885", "long": "-121.88566", "rank": 1, "region": "San Jose", "score": 0.0, "station_id": "11", "station_name": "MLK Library", "tot_outflow": 422}, {"avg_outflow": 2.3333333333333335, "dockcount": "19", "installation_date": "8/7/2013", "lat": "37.332808", "long": "-121.883891", "rank": 1, "region": "San Jose", "score": 0.0, "station_id": "12", "station_name": "SJSU 4th at San Carlos", "tot_outflow": 308}, {"avg_outflow": 2.3333333333333335, "dockcount": "15", "installation_date": "8/6/2013", "lat": "37.339301", "long": "-121.889937", "rank": 1, "region": "San Jose", "score": 1.3255208333333335e-05, "station_id": "13", "station_name": "St James Park", "tot_outflow": 308}, {"avg_outflow": 1.7878787878787878, "dockcount": "19", "installation_date": "8/5/2013", "lat": "37.332692", "long": "-121.900084", "rank": 1, "region": "San Jose", "score": 6.4125e-07, "station_id": "14", "station_name": "Arena Green / SAP Center", "tot_outflow": 236}, {"avg_outflow": 2.757575757575758, "dockcount": "15", "installation_date": "8/7/2013", "lat": "37.333955", "long": "-121.877349", "rank": 1, "region": "San Jose", "score": 3.3725000000000003e-06, "station_id": "16", "station_name": "SJSU - San Salvador at 9th", "tot_outflow": 364}, {"avg_outflow": 0.4318181818181818, "dockcount": "15", "installation_date": "8/12/2013", "lat": "37.481758", "long": "-122.226904", "rank": 1, "region": "Redwood City", "score": 4.729166666666667e-07, "station_id": "21", "station_name": "Franklin at Maple", "tot_outflow": 57}, {"avg_outflow": 2.507575757575758, "dockcount": "25", "installation_date": "8/15/2013", "lat": "37.486078", "long": "-122.232089", "rank": 1, "region": "Redwood City", "score": 0.0, "station_id": "22", "station_name": "Redwood City Caltrain Station", "tot_outflow": 331}, {"avg_outflow": 0.7424242424242424, "dockcount": "15", "installation_date": "8/15/2013", "lat": "37.488501", "long": "-122.231061", "rank": 1, "region": "Redwood City", "score": 0.0, "station_id": "23", "station_name": "San Mateo County Center", "tot_outflow": 98}, {"avg_outflow": 0.2803030303030303, "dockcount": "15", "installation_date": "8/12/2013", "lat": "37.484219", "long": "-122.227424", "rank": 1, "region": "Redwood City", "score": 0.0, "station_id": "24", "station_name": "Redwood City Public Library", "tot_outflow": 37}, {"avg_outflow": 0.24242424242424243, "dockcount": "15", "installation_date": "8/12/2013", "lat": "37.486725", "long": "-122.225551", "rank": 1, "region": "Redwood City", "score": 0.0, "station_id": "25", "station_name": "Broadway at Main", "tot_outflow": 32}, {"avg_outflow": 0.8863636363636364, "dockcount": "15", "installation_date": "8/12/2013", "lat": "37.487682", "long": "-122.223492", "rank": 1, "region": "Redwood City", "score": 3.9583333333333334e-08, "station_id": "26", "station_name": "Redwood City Medical Center", "tot_outflow": 117}, {"avg_outflow": 4.257575757575758, "dockcount": "15", "installation_date": "8/16/2013", "lat": "37.389218", "long": "-122.081896", "rank": 1, "region": "Mountain View", "score": 5.4086458333333345e-06, "station_id": "27", "station_name": "Mountain View City Hall", "tot_outflow": 562}, {"avg_outflow": 7.8106060606060606, "dockcount": "23", "installation_date": "8/15/2013", "lat": "37.394358", "long": "-122.076713", "rank": 1, "region": "Mountain View", "score": 1.578125e-07, "station_id": "28", "station_name": "Mountain View Caltrain Station", "tot_outflow": 1031}, {"avg_outflow": 1.4242424242424243, "dockcount": "23", "installation_date": "8/15/2013", "lat": "37.40694", "long": "-122.106758", "rank": 1, "region": "Mountain View", "score": 0.0, "station_id": "29", "station_name": "San Antonio Caltrain Station", "tot_outflow": 188}, {"avg_outflow": 1.2575757575757576, "dockcount": "15", "installation_date": "8/16/2013", "lat": "37.390277", "long": "-122.066553", "rank": 1, "region": "Mountain View", "score": 0.0, "station_id": "30", "station_name": "Evelyn Park and Ride", "tot_outflow": 166}, {"avg_outflow": 0.7121212121212122, "dockcount": "15", "installation_date": "12/31/2013", "lat": "37.400443", "long": "-122.108338", "rank": 1, "region": "Mountain View", "score": 2.8440729166666668e-05, "station_id": "31", "station_name": "San Antonio Shopping Center", "tot_outflow": 94}, {"avg_outflow": 0.7727272727272727, "dockcount": "11", "installation_date": "12/31/2013", "lat": "37.385956", "long": "-122.083678", "rank": 1, "region": "Mountain View", "score": 0.0, "station_id": "32", "station_name": "Castro Street and El Camino Real", "tot_outflow": 102}, {"avg_outflow": 1.2424242424242424, "dockcount": "15", "installation_date": "8/16/2013", "lat": "37.400241", "long": "-122.099076", "rank": 1, "region": "Mountain View", "score": 0.0, "station_id": "33", "station_name": "Rengstorff Avenue / California Street", "tot_outflow": 164}, {"avg_outflow": 2.787878787878788, "dockcount": "23", "installation_date": "8/14/2013", "lat": "37.443988", "long": "-122.164759", "rank": 1, "region": "Palo Alto", "score": 0.00011459395833333334, "station_id": "34", "station_name": "Palo Alto Caltrain Station", "tot_outflow": 368}, {"avg_outflow": 1.7575757575757576, "dockcount": "11", "installation_date": "8/15/2013", "lat": "37.444521", "long": "-122.163093", "rank": 1, "region": "Palo Alto", "score": 7.885416666666666e-07, "station_id": "35", "station_name": "University and Emerson", "tot_outflow": 232}, {"avg_outflow": 1.5151515151515151, "dockcount": "15", "installation_date": "8/14/2013", "lat": "37.429082", "long": "-122.142805", "rank": 1, "region": "Palo Alto", "score": 0.0, "station_id": "36", "station_name": "California Ave Caltrain Station", "tot_outflow": 200}, {"avg_outflow": 2.128787878787879, "dockcount": "11", "installation_date": "8/14/2013", "lat": "37.448598", "long": "-122.159504", "rank": 1, "region": "Palo Alto", "score": 3.442208333333334e-05, "station_id": "37", "station_name": "Cowper at University", "tot_outflow": 281}, {"avg_outflow": 0.9318181818181818, "dockcount": "15", "installation_date": "8/14/2013", "lat": "37.425684", "long": "-122.137778", "rank": 1, "region": "Palo Alto", "score": 0.0, "station_id": "38", "station_name": "Park at Olive", "tot_outflow": 123}, {"avg_outflow": 15.803030303030303, "dockcount": "15", "installation_date": "8/19/2013", "lat": "37.795001", "long": "-122.39997", "rank": 2, "region": "San Francisco", "score": 0.0020037416666666666, "station_id": "41", "station_name": "Clay at Battery", "tot_outflow": 2086}, {"avg_outflow": 14.106060606060606, "dockcount": "15", "installation_date": "8/19/2013", "lat": "37.79728", "long": "-122.398436", "rank": 1, "region": "San Francisco", "score": 0.0009538056250000001, "station_id": "42", "station_name": "Davis at Jackson", "tot_outflow": 1862}, {"avg_outflow": 19.265151515151516, "dockcount": "15", "installation_date": "8/19/2013", "lat": "37.794231", "long": "-122.402923", "rank": 3, "region": "San Francisco", "score": 0.0059010690625, "station_id": "45", "station_name": "Commercial at Montgomery", "tot_outflow": 2543}, {"avg_outflow": 8.424242424242424, "dockcount": "15", "installation_date": "8/19/2013", "lat": "37.795425", "long": "-122.404767", "rank": 1, "region": "San Francisco", "score": 0.00013756197916666669, "station_id": "46", "station_name": "Washington at Kearney", "tot_outflow": 1112}, {"avg_outflow": 16.075757575757574, "dockcount": "19", "installation_date": "8/19/2013", "lat": "37.788975", "long": "-122.403452", "rank": 2, "region": "San Francisco", "score": 0.0016052009374999997, "station_id": "47", "station_name": "Post at Kearney", "tot_outflow": 2122}, {"avg_outflow": 16.295454545454547, "dockcount": "15", "installation_date": "8/19/2013", "lat": "37.799953", "long": "-122.398525", "rank": 3, "region": "San Francisco", "score": 0.0063465333333333354, "station_id": "48", "station_name": "Embarcadero at Vallejo", "tot_outflow": 2151}, {"avg_outflow": 21.893939393939394, "dockcount": "19", "installation_date": "8/20/2013", "lat": "37.789625", "long": "-122.390264", "rank": 1, "region": "San Francisco", "score": 0.0005764072916666665, "station_id": "49", "station_name": "Spear at Folsom", "tot_outflow": 2890}, {"avg_outflow": 42.833333333333336, "dockcount": "23", "installation_date": "8/20/2013", "lat": "37.795392", "long": "-122.394203", "rank": 3, "region": "San Francisco", "score": 0.007134450729166665, "station_id": "50", "station_name": "Harry Bridges Plaza (Ferry Building)", "tot_outflow": 5654}, {"avg_outflow": 19.25, "dockcount": "19", "installation_date": "8/20/2013", "lat": "37.791464", "long": "-122.391034", "rank": 3, "region": "San Francisco", "score": 0.004908814270833334, "station_id": "51", "station_name": "Embarcadero at Folsom", "tot_outflow": 2541}, {"avg_outflow": 23.613636363636363, "dockcount": "19", "installation_date": "8/25/2013", "lat": "37.783871", "long": "-122.408433", "rank": 2, "region": "San Francisco", "score": 0.0012373836458333335, "station_id": "53", "station_name": "Powell Street BART", "tot_outflow": 3117}, {"avg_outflow": 19.416666666666668, "dockcount": "15", "installation_date": "8/20/2013", "lat": "37.787152", "long": "-122.388013", "rank": 3, "region": "San Francisco", "score": 0.006265028229166667, "station_id": "54", "station_name": "Embarcadero at Bryant", "tot_outflow": 2563}, {"avg_outflow": 36.70454545454545, "dockcount": "23", "installation_date": "8/20/2013", "lat": "37.789756", "long": "-122.394643", "rank": 5, "region": "San Francisco", "score": 0.015410274895833341, "station_id": "55", "station_name": "Temporary Transbay Terminal (Howard at Beale)", "tot_outflow": 4845}, {"avg_outflow": 20.71969696969697, "dockcount": "19", "installation_date": "8/20/2013", "lat": "37.792251", "long": "-122.397086", "rank": 2, "region": "San Francisco", "score": 0.0035852490624999987, "station_id": "56", "station_name": "Beale at Market", "tot_outflow": 2735}, {"avg_outflow": 16.62121212121212, "dockcount": "15", "installation_date": "8/21/2013", "lat": "37.781752", "long": "-122.405127", "rank": 1, "region": "San Francisco", "score": 0.00048611322916666675, "station_id": "57", "station_name": "5th at Howard", "tot_outflow": 2194}, {"avg_outflow": 7.393939393939394, "dockcount": "19", "installation_date": "8/21/2013", "lat": "37.77865", "long": "-122.418235", "rank": 1, "region": "San Francisco", "score": 0.00044822802083333333, "station_id": "58", "station_name": "San Francisco City Hall", "tot_outflow": 976}, {"avg_outflow": 10.984848484848484, "dockcount": "23", "installation_date": "8/21/2013", "lat": "37.781332", "long": "-122.418603", "rank": 1, "region": "San Francisco", "score": 0.0008973280208333332, "station_id": "59", "station_name": "Golden Gate at Polk", "tot_outflow": 1450}, {"avg_outflow": 36.06060606060606, "dockcount": "15", "installation_date": "8/21/2013", "lat": "37.80477", "long": "-122.403234", "rank": 3, "region": "San Francisco", "score": 0.007528218958333332, "station_id": "60", "station_name": "Embarcadero at Sansome", "tot_outflow": 4760}, {"avg_outflow": 31.772727272727273, "dockcount": "27", "installation_date": "8/22/2013", "lat": "37.780526", "long": "-122.390288", "rank": 1, "region": "San Francisco", "score": 0.0006944031250000002, "station_id": "61", "station_name": "2nd at Townsend", "tot_outflow": 4194}, {"avg_outflow": 25.553030303030305, "dockcount": "19", "installation_date": "8/22/2013", "lat": "37.785299", "long": "-122.396236", "rank": 4, "region": "San Francisco", "score": 0.01106095802083333, "station_id": "62", "station_name": "2nd at Folsom", "tot_outflow": 3373}, {"avg_outflow": 21.704545454545453, "dockcount": "19", "installation_date": "8/22/2013", "lat": "37.786978", "long": "-122.398108", "rank": 2, "region": "San Francisco", "score": 0.0017169864583333326, "station_id": "63", "station_name": "Howard at 2nd", "tot_outflow": 2865}, {"avg_outflow": 30.196969696969695, "dockcount": "15", "installation_date": "8/22/2013", "lat": "37.782259", "long": "-122.392738", "rank": 4, "region": "San Francisco", "score": 0.009112359895833333, "station_id": "64", "station_name": "2nd at South Park", "tot_outflow": 3986}, {"avg_outflow": 29.765151515151516, "dockcount": "15", "installation_date": "8/22/2013", "lat": "37.771058", "long": "-122.402717", "rank": 3, "region": "San Francisco", "score": 0.004300385312500001, "station_id": "65", "station_name": "Townsend at 7th", "tot_outflow": 3929}, {"avg_outflow": 22.757575757575758, "dockcount": "19", "installation_date": "8/23/2013", "lat": "37.774814", "long": "-122.418954", "rank": 3, "region": "San Francisco", "score": 0.0058975434375, "station_id": "66", "station_name": "South Van Ness at Market", "tot_outflow": 3004}, {"avg_outflow": 22.992424242424242, "dockcount": "27", "installation_date": "8/23/2013", "lat": "37.776619", "long": "-122.417385", "rank": 2, "region": "San Francisco", "score": 0.0019949915625, "station_id": "67", "station_name": "Market at 10th", "tot_outflow": 3035}, {"avg_outflow": 15.075757575757576, "dockcount": "19", "installation_date": "8/23/2013", "lat": "37.784878", "long": "-122.401014", "rank": 1, "region": "San Francisco", "score": 0.0005457914583333333, "station_id": "68", "station_name": "Yerba Buena Center of the Arts (3rd @ Howard)", "tot_outflow": 1990}, {"avg_outflow": 34.49242424242424, "dockcount": "23", "installation_date": "8/23/2013", "lat": "37.776377", "long": "-122.39607", "rank": 3, "region": "San Francisco", "score": 0.0071362953125000015, "station_id": "69", "station_name": "San Francisco Caltrain 2 (330 Townsend)", "tot_outflow": 4553}, {"avg_outflow": 68.40151515151516, "dockcount": "19", "installation_date": "8/23/2013", "lat": "37.776317", "long": "-122.395569", "rank": 5, "region": "San Francisco", "score": 0.04040574885416666, "station_id": "70", "station_name": "San Francisco Caltrain (Townsend at 4th)", "tot_outflow": 9029}, {"avg_outflow": 16.181818181818183, "dockcount": "19", "installation_date": "8/23/2013", "lat": "37.788446", "long": "-122.408499", "rank": 2, "region": "San Francisco", "score": 0.003953325208333335, "station_id": "71", "station_name": "Powell at Post (Union Square)", "tot_outflow": 2136}, {"avg_outflow": 18.87121212121212, "dockcount": "23", "installation_date": "8/23/2013", "lat": "37.780356", "long": "-122.412919", "rank": 2, "region": "San Francisco", "score": 0.0016751963541666668, "station_id": "72", "station_name": "Civic Center BART (7th at Market)", "tot_outflow": 2491}, {"avg_outflow": 23.757575757575758, "dockcount": "15", "installation_date": "8/21/2013", "lat": "37.798522", "long": "-122.407245", "rank": 4, "region": "San Francisco", "score": 0.013548209583333333, "station_id": "73", "station_name": "Grant Avenue at Columbus Avenue", "tot_outflow": 3136}, {"avg_outflow": 32.18181818181818, "dockcount": "23", "installation_date": "8/25/2013", "lat": "37.794139", "long": "-122.394434", "rank": 2, "region": "San Francisco", "score": 0.0030842272916666667, "station_id": "74", "station_name": "Steuart at Market", "tot_outflow": 4248}, {"avg_outflow": 19.28030303030303, "dockcount": "19", "installation_date": "8/25/2013", "lat": "37.7913", "long": "-122.399051", "rank": 1, "region": "San Francisco", "score": 0.0009659905208333337, "station_id": "75", "station_name": "Mechanics Plaza (Market at Battery)", "tot_outflow": 2545}, {"avg_outflow": 30.015151515151516, "dockcount": "19", "installation_date": "8/25/2013", "lat": "37.786305", "long": "-122.404966", "rank": 2, "region": "San Francisco", "score": 0.002315130729166666, "station_id": "76", "station_name": "Market at 4th", "tot_outflow": 3962}, {"avg_outflow": 39.59848484848485, "dockcount": "27", "installation_date": "8/25/2013", "lat": "37.789625", "long": "-122.400811", "rank": 2, "region": "San Francisco", "score": 0.0016127749999999997, "station_id": "77", "station_name": "Market at Sansome", "tot_outflow": 5227}, {"avg_outflow": 0.16666666666666666, "dockcount": "15", "installation_date": "12/31/2013", "lat": "37.352601", "long": "-121.905733", "rank": 1, "region": "San Jose", "score": 0.0, "station_id": "80", "station_name": "San Jose Government Center", "tot_outflow": 22}, {"avg_outflow": 1.393939393939394, "dockcount": "15", "installation_date": "1/22/2014", "lat": "37.798541", "long": "-122.400862", "rank": 1, "region": "San Francisco", "score": 1.1684687500000001e-05, "station_id": "82", "station_name": "Broadway St at Battery St", "tot_outflow": 184}, {"avg_outflow": 0.007575757575757576, "dockcount": "15", "installation_date": "2/20/2014", "lat": "37.491269", "long": "-122.236234", "rank": 1, "region": "Redwood City", "score": 0.0, "station_id": "83", "station_name": "Mezes Park", "tot_outflow": 1}]